<?xml version="1.0" encoding="UTF-8"?>
<kml xmlns="http://www.opengis.net/kml/2.2">
  <Document>
    <name>San Jose</name>
    <description/>
    <Style id="icon-1899-DB4436-normal">
      <IconStyle>
        <color>ff3644db</color>
        <scale>1</scale>
        <Icon>
          <href>https://www.gstatic.com/mapspro/images/stock/503-wht-blank_maps.png</href>
        </Icon>
        <hotSpot x="32" xunits="pixels" y="64" yunits="insetPixels"/>
      </IconStyle>
      <LabelStyle>
        <scale>0</scale>
      </LabelStyle>
    </Style>
    <Style id="icon-1899-DB4436-highlight">
      <IconStyle>
        <color>ff3644db</color>
        <scale>1</scale>
        <Icon>
          <href>https://www.gstatic.com/mapspro/images/stock/503-wht-blank_maps.png</href>
        </Icon>
        <hotSpot x="32" xunits="pixels" y="64" yunits="insetPixels"/>
      </IconStyle>
      <LabelStyle>
        <scale>1</scale>
      </LabelStyle>
    </Style>
    <StyleMap id="icon-1899-DB4436">
      <Pair>
        <key>normal</key>
        <styleUrl>#icon-1899-DB4436-normal</styleUrl>
      </Pair>
      <Pair>
        <key>highlight</key>
        <styleUrl>#icon-1899-DB4436-highlight</styleUrl>
      </Pair>
    </StyleMap>
    <Folder>
      <name>TMC - 7-9AM; 11AM-1PM; 4-6PM - Midweek</name>
      <Placemark>
        <name><![CDATA[BERRYESSA RD & FLICKINGER AV/JACKSON AV]]></name>
        <description>375</description>
        <styleUrl>#icon-1899-DB4436</styleUrl>
        <Point>
          <coordinates>
            -121.867357,37.379768,0
          </coordinates>
        </Point>
      </Placemark>
      <Placemark>
        <name><![CDATA[BERRYESSA RD & FARRAGUT WY/VINCI PARK WY]]></name>
        <description>803</description>
        <styleUrl>#icon-1899-DB4436</styleUrl>
        <Point>
          <coordinates>
            -121.86899,37.378029,0
          </coordinates>
        </Point>
      </Placemark>
      <Placemark>
        <name><![CDATA[BERRYESSA RD & LUNDY AV]]></name>
        <description>441</description>
        <styleUrl>#icon-1899-DB4436</styleUrl>
        <Point>
          <coordinates>
            -121.873062,37.373791,0
          </coordinates>
        </Point>
      </Placemark>
      <Placemark>
        <name><![CDATA[BERRYESSA ROAD & BERRYESSA STATION WAY]]></name>
        <description>1057</description>
        <styleUrl>#icon-1899-DB4436</styleUrl>
        <Point>
          <coordinates>
            -121.875541,37.372042,0
          </coordinates>
        </Point>
      </Placemark>
      <Placemark>
        <name><![CDATA[BERRYESSA RD & FUTURE DW]]></name>
        <description>1063</description>
        <styleUrl>#icon-1899-DB4436</styleUrl>
        <Point>
          <coordinates>
            -121.877584,37.370492,0
          </coordinates>
        </Point>
      </Placemark>
      <Placemark>
        <name><![CDATA[BERRYESSA RD & SIERRA RD]]></name>
        <description>1062</description>
        <styleUrl>#icon-1899-DB4436</styleUrl>
        <Point>
          <coordinates>
            -121.879254,37.369478,0
          </coordinates>
        </Point>
      </Placemark>
      <Placemark>
        <name><![CDATA[BERRYESSA RD & COMMERCIAL ST]]></name>
        <description>525</description>
        <styleUrl>#icon-1899-DB4436</styleUrl>
        <Point>
          <coordinates>
            -121.882931,37.36612,0
          </coordinates>
        </Point>
      </Placemark>
      <Placemark>
        <name><![CDATA[GUADALUPE PW & HEDDING ST]]></name>
        <description>189</description>
        <styleUrl>#icon-1899-DB4436</styleUrl>
        <Point>
          <coordinates>
            -121.908887,37.350675,0
          </coordinates>
        </Point>
      </Placemark>
      <Placemark>
        <name><![CDATA[HEDDING ST & JAIL GARAGE DW]]></name>
        <description>644</description>
        <styleUrl>#icon-1899-DB4436</styleUrl>
        <Point>
          <coordinates>
            -121.907126,37.351565,0
          </coordinates>
        </Point>
      </Placemark>
      <Placemark>
        <name><![CDATA[HEDDING ST & SAN PEDRO ST]]></name>
        <description>162</description>
        <styleUrl>#icon-1899-DB4436</styleUrl>
        <Point>
          <coordinates>
            -121.905678,37.35224,0
          </coordinates>
        </Point>
      </Placemark>
      <Placemark>
        <name><![CDATA[FIRST ST & HEDDING ST]]></name>
        <description>65</description>
        <styleUrl>#icon-1899-DB4436</styleUrl>
        <Point>
          <coordinates>
            -121.903458,37.353369,0
          </coordinates>
        </Point>
      </Placemark>
      <Placemark>
        <name><![CDATA[FOURTH ST & HEDDING ST]]></name>
        <description>67</description>
        <styleUrl>#icon-1899-DB4436</styleUrl>
        <Point>
          <coordinates>
            -121.900228,37.354875,0
          </coordinates>
        </Point>
      </Placemark>
      <Placemark>
        <name><![CDATA[HEDDING ST & SEVENTH ST]]></name>
        <description>520</description>
        <styleUrl>#icon-1899-DB4436</styleUrl>
        <Point>
          <coordinates>
            -121.897013,37.356405,0
          </coordinates>
        </Point>
      </Placemark>
      <Placemark>
        <name><![CDATA[HEDDING ST & TENTH ST]]></name>
        <description>137</description>
        <styleUrl>#icon-1899-DB4436</styleUrl>
        <Point>
          <coordinates>
            -121.893862,37.357903,0
          </coordinates>
        </Point>
      </Placemark>
      <Placemark>
        <name><![CDATA[ELEVENTH ST & HEDDING ST]]></name>
        <description>207</description>
        <styleUrl>#icon-1899-DB4436</styleUrl>
        <Point>
          <coordinates>
            -121.89281,37.358405,0
          </coordinates>
        </Point>
      </Placemark>
      <Placemark>
        <name><![CDATA[HEDDING ST & OAKLAND RD/THIRTEENTH ST]]></name>
        <description>152</description>
        <styleUrl>#icon-1899-DB4436</styleUrl>
        <Point>
          <coordinates>
            -121.890907,37.359299,0
          </coordinates>
        </Point>
      </Placemark>
      <Placemark>
        <name><![CDATA[HEDDING ST & MABURY RD]]></name>
        <description>303</description>
        <styleUrl>#icon-1899-DB4436</styleUrl>
        <Point>
          <coordinates>
            -121.885809,37.362889,0
          </coordinates>
        </Point>
      </Placemark>
      <Placemark>
        <name><![CDATA[JACKSON AV & STORY RD]]></name>
        <description>227</description>
        <styleUrl>#icon-1899-DB4436</styleUrl>
        <Point>
          <coordinates>
            -121.832647,37.346986,0
          </coordinates>
        </Point>
      </Placemark>
      <Placemark>
        <name><![CDATA[CINDERELLA LN & JACKSON AV]]></name>
        <description>523</description>
        <styleUrl>#icon-1899-DB4436</styleUrl>
        <Point>
          <coordinates>
            -121.834369,37.348827,0
          </coordinates>
        </Point>
      </Placemark>
      <Placemark>
        <name><![CDATA[BAMBI LN/SINCLAIR FR N & JACKSON AV S]]></name>
        <description>597</description>
        <styleUrl>#icon-1899-DB4436</styleUrl>
        <Point>
          <coordinates>
            -121.836358,37.350947,0
          </coordinates>
        </Point>
      </Placemark>
      <Placemark>
        <name><![CDATA[DOBERN AV & JACKSON AV]]></name>
        <description>873</description>
        <styleUrl>#icon-1899-DB4436</styleUrl>
        <Point>
          <coordinates>
            -121.83746,37.352125,0
          </coordinates>
        </Point>
      </Placemark>
      <Placemark>
        <name><![CDATA[CAPITOL EX/SAN ANTONIO ST & JACKSON AV]]></name>
        <description>347</description>
        <styleUrl>#icon-1899-DB4436</styleUrl>
        <Point>
          <coordinates>
            -121.84067,37.355539,0
          </coordinates>
        </Point>
      </Placemark>
      <Placemark>
        <name><![CDATA[ALUM ROCK AV & JACKSON AV]]></name>
        <description>1048</description>
        <styleUrl>#icon-1899-DB4436</styleUrl>
        <Point>
          <coordinates>
            -121.843495,37.358515,0
          </coordinates>
        </Point>
      </Placemark>
      <Placemark>
        <name><![CDATA[JACKSON AV & LUZ AV]]></name>
        <description>1083</description>
        <styleUrl>#icon-1899-DB4436</styleUrl>
        <Point>
          <coordinates>
            -121.844611,37.359587,0
          </coordinates>
        </Point>
      </Placemark>
      <Placemark>
        <name><![CDATA[ALEXIAN DR/MADDEN AV & JACKSON AV]]></name>
        <description>1082</description>
        <styleUrl>#icon-1899-DB4436</styleUrl>
        <Point>
          <coordinates>
            -121.845889,37.360895,0
          </coordinates>
        </Point>
      </Placemark>
      <Placemark>
        <name><![CDATA[JACKSON AV & MATHER DR]]></name>
        <description>718</description>
        <styleUrl>#icon-1899-DB4436</styleUrl>
        <Point>
          <coordinates>
            -121.847768,37.362831,0
          </coordinates>
        </Point>
      </Placemark>
      <Placemark>
        <name><![CDATA[JACKSON AV & MCKEE RD]]></name>
        <description>218</description>
        <styleUrl>#icon-1899-DB4436</styleUrl>
        <Point>
          <coordinates>
            -121.85012,37.365259,0
          </coordinates>
        </Point>
      </Placemark>
      <Placemark>
        <name><![CDATA[JACKSON AV & RINEHART DR]]></name>
        <description>758</description>
        <styleUrl>#icon-1899-DB4436</styleUrl>
        <Point>
          <coordinates>
            -121.8518,37.366936,0
          </coordinates>
        </Point>
      </Placemark>
      <Placemark>
        <name><![CDATA[INDEPENDENCE H.S. DW & JACKSON AV]]></name>
        <description>747</description>
        <styleUrl>#icon-1899-DB4436</styleUrl>
        <Point>
          <coordinates>
            -121.855568,37.370724,0
          </coordinates>
        </Point>
      </Placemark>
      <Placemark>
        <name><![CDATA[COMMODORE DR & JACKSON AV]]></name>
        <description>1054</description>
        <styleUrl>#icon-1899-DB4436</styleUrl>
        <Point>
          <coordinates>
            -121.862407,37.377945,0
          </coordinates>
        </Point>
      </Placemark>
      <Placemark>
        <name><![CDATA[ALUM ROCK AV & KING RD]]></name>
        <description>1044</description>
        <styleUrl>#icon-1899-DB4436</styleUrl>
        <Point>
          <coordinates>
            -121.855527,37.352802,0
          </coordinates>
        </Point>
      </Placemark>
      <Placemark>
        <name><![CDATA[KING RD & WILSHIRE BL]]></name>
        <description>965</description>
        <styleUrl>#icon-1899-DB4436</styleUrl>
        <Point>
          <coordinates>
            -121.857972,37.355178,0
          </coordinates>
        </Point>
      </Placemark>
      <Placemark>
        <name><![CDATA[KING RD & MCKEE RD]]></name>
        <description>147</description>
        <styleUrl>#icon-1899-DB4436</styleUrl>
        <Point>
          <coordinates>
            -121.860763,37.358066,0
          </coordinates>
        </Point>
      </Placemark>
      <Placemark>
        <name><![CDATA[KING RD & LAS PLUMAS AV]]></name>
        <description>494</description>
        <styleUrl>#icon-1899-DB4436</styleUrl>
        <Point>
          <coordinates>
            -121.86515,37.362486,0
          </coordinates>
        </Point>
      </Placemark>
      <Placemark>
        <name><![CDATA[DOBBIN DR & KING RD]]></name>
        <description>1033</description>
        <styleUrl>#icon-1899-DB4436</styleUrl>
        <Point>
          <coordinates>
            -121.867279,37.36467,0
          </coordinates>
        </Point>
      </Placemark>
      <Placemark>
        <name><![CDATA[KING RD & SALAMONI CT]]></name>
        <description>940</description>
        <styleUrl>#icon-1899-DB4436</styleUrl>
        <Point>
          <coordinates>
            -121.871523,37.370019,0
          </coordinates>
        </Point>
      </Placemark>
      <Placemark>
        <name><![CDATA[COMMODORE DR & KING RD]]></name>
        <description>939</description>
        <styleUrl>#icon-1899-DB4436</styleUrl>
        <Point>
          <coordinates>
            -121.872208,37.371039,0
          </coordinates>
        </Point>
      </Placemark>
      <Placemark>
        <name><![CDATA[LUNDY AV & SIERRA RD]]></name>
        <description>731</description>
        <styleUrl>#icon-1899-DB4436</styleUrl>
        <Point>
          <coordinates>
            -121.87851,37.379884,0
          </coordinates>
        </Point>
      </Placemark>
      <Placemark>
        <name><![CDATA[GORDY DR/TOWNSEND AV & LUNDY AV]]></name>
        <description>639</description>
        <styleUrl>#icon-1899-DB4436</styleUrl>
        <Point>
          <coordinates>
            -121.881571,37.382741,0
          </coordinates>
        </Point>
      </Placemark>
      <Placemark>
        <name><![CDATA[LUNDY AV & MCKAY DR]]></name>
        <description>719</description>
        <styleUrl>#icon-1899-DB4436</styleUrl>
        <Point>
          <coordinates>
            -121.889782,37.391767,0
          </coordinates>
        </Point>
      </Placemark>
      <Placemark>
        <name><![CDATA[CONCOURSE DR & LUNDY AV]]></name>
        <description>877</description>
        <styleUrl>#icon-1899-DB4436</styleUrl>
        <Point>
          <coordinates>
            -121.890934,37.397057,0
          </coordinates>
        </Point>
      </Placemark>
      <Placemark>
        <name><![CDATA[FORTUNE DR & LUNDY AV]]></name>
        <description>260</description>
        <styleUrl>#icon-1899-DB4436</styleUrl>
        <Point>
          <coordinates>
            -121.891189,37.4009,0
          </coordinates>
        </Point>
      </Placemark>
      <Placemark>
        <name><![CDATA[LUNDY AV & TRADE ZONE BL]]></name>
        <description>97</description>
        <styleUrl>#icon-1899-DB4436</styleUrl>
        <Point>
          <coordinates>
            -121.89058,37.403313,0
          </coordinates>
        </Point>
      </Placemark>
      <Placemark>
        <name><![CDATA[DOT WAY & MABURY RD]]></name>
        <description>201</description>
        <styleUrl>#icon-1899-DB4436</styleUrl>
        <Point>
          <coordinates>
            -121.874025,37.363741,0
          </coordinates>
        </Point>
      </Placemark>
      <Placemark>
        <name><![CDATA[BERRYESSA STATION WY/LENFEST RD & MABURY RD]]></name>
        <description>1074</description>
        <styleUrl>#icon-1899-DB4436</styleUrl>
        <Point>
          <coordinates>
            -121.871849,37.365205,0
          </coordinates>
        </Point>
      </Placemark>
      <Placemark>
        <name><![CDATA[KING RD & MABURY RD]]></name>
        <description>382</description>
        <styleUrl>#icon-1899-DB4436</styleUrl>
        <Point>
          <coordinates>
            -121.869365,37.366808,0
          </coordinates>
        </Point>
      </Placemark>
      <Placemark>
        <name><![CDATA[EDUCATIONAL PARK DR & MABURY RD]]></name>
        <description>722</description>
        <styleUrl>#icon-1899-DB4436</styleUrl>
        <Point>
          <coordinates>
            -121.863251,37.37094,0
          </coordinates>
        </Point>
      </Placemark>
      <Placemark>
        <name><![CDATA[JACKSON AV & MABURY RD]]></name>
        <description>415</description>
        <styleUrl>#icon-1899-DB4436</styleUrl>
        <Point>
          <coordinates>
            -121.858728,37.373994,0
          </coordinates>
        </Point>
      </Placemark>
      <Placemark>
        <name><![CDATA[CALLE ARTIS & OAKLAND RD]]></name>
        <description>751</description>
        <styleUrl>#icon-1899-DB4436</styleUrl>
        <Point>
          <coordinates>
            -121.902178,37.39675,0
          </coordinates>
        </Point>
      </Placemark>
      <Placemark>
        <name><![CDATA[OAKLAND RD & ROCK AV]]></name>
        <description>968</description>
        <styleUrl>#icon-1899-DB4436</styleUrl>
        <Point>
          <coordinates>
            -121.901527,37.393694,0
          </coordinates>
        </Point>
      </Placemark>
      <Placemark>
        <name><![CDATA[FOX LN & OAKLAND RD]]></name>
        <description>767</description>
        <styleUrl>#icon-1899-DB4436</styleUrl>
        <Point>
          <coordinates>
            -121.899963,37.388559,0
          </coordinates>
        </Point>
      </Placemark>
      <Placemark>
        <name><![CDATA[MCKAY DR & OAKLAND RD]]></name>
        <description>695</description>
        <styleUrl>#icon-1899-DB4436</styleUrl>
        <Point>
          <coordinates>
            -121.897907,37.385785,0
          </coordinates>
        </Point>
      </Placemark>
      <Placemark>
        <name><![CDATA[OAKLAND RD & PRIVATE ST (B ST)]]></name>
        <description>1064</description>
        <styleUrl>#icon-1899-DB4436</styleUrl>
        <Point>
          <coordinates>
            -121.895343,37.381011,0
          </coordinates>
        </Point>
      </Placemark>
      <Placemark>
        <name><![CDATA[CORIE CT/SCHALLENBERGER RD & OAKLAND RD]]></name>
        <description>448</description>
        <styleUrl>#icon-1899-DB4436</styleUrl>
        <Point>
          <coordinates>
            -121.895437,37.376831,0
          </coordinates>
        </Point>
      </Placemark>
      <Placemark>
        <name><![CDATA[BERGER DR & OAKLAND RD]]></name>
        <description>770</description>
        <styleUrl>#icon-1899-DB4436</styleUrl>
        <Point>
          <coordinates>
            -121.894378,37.373815,0
          </coordinates>
        </Point>
      </Placemark>
      <Placemark>
        <name><![CDATA[GISH RD & OAKLAND RD]]></name>
        <description>406</description>
        <styleUrl>#icon-1899-DB4436</styleUrl>
        <Point>
          <coordinates>
            -121.893643,37.37193,0
          </coordinates>
        </Point>
      </Placemark>
      <Placemark>
        <name><![CDATA[BAYSHORE FR N & OAKLAND RD]]></name>
        <description>659</description>
        <styleUrl>#icon-1899-DB4436</styleUrl>
        <Point>
          <coordinates>
            -121.891549,37.363466,0
          </coordinates>
        </Point>
      </Placemark>
      <Placemark>
        <name><![CDATA[COMMERCIAL ST & OAKLAND RD]]></name>
        <description>526</description>
        <styleUrl>#icon-1899-DB4436</styleUrl>
        <Point>
          <coordinates>
            -121.89171,37.364694,0
          </coordinates>
        </Point>
      </Placemark>
      <Placemark>
        <name><![CDATA[BAYSHORE FR S & OAKLAND RD]]></name>
        <description>660</description>
        <styleUrl>#icon-1899-DB4436</styleUrl>
        <Point>
          <coordinates>
            -121.891428,37.362576,0
          </coordinates>
        </Point>
      </Placemark>
      <Placemark>
        <name><![CDATA[FIRST ST & TAYLOR ST]]></name>
        <description>24</description>
        <styleUrl>#icon-1899-DB4436</styleUrl>
        <Point>
          <coordinates>
            -121.900223,37.34908,0
          </coordinates>
        </Point>
      </Placemark>
      <Placemark>
        <name><![CDATA[FOURTH ST & TAYLOR ST.]]></name>
        <description>48</description>
        <styleUrl>#icon-1899-DB4436</styleUrl>
        <Point>
          <coordinates>
            -121.897038,37.350591,0
          </coordinates>
        </Point>
      </Placemark>
      <Placemark>
        <name><![CDATA[FIFTH ST & TAYLOR ST.]]></name>
        <description>768</description>
        <styleUrl>#icon-1899-DB4436</styleUrl>
        <Point>
          <coordinates>
            -121.895956,37.351107,0
          </coordinates>
        </Point>
      </Placemark>
      <Placemark>
        <name><![CDATA[SEVENTH ST & TAYLOR ST.]]></name>
        <description>764</description>
        <styleUrl>#icon-1899-DB4436</styleUrl>
        <Point>
          <coordinates>
            -121.893823,37.35212,0
          </coordinates>
        </Point>
      </Placemark>
      <Placemark>
        <name><![CDATA[TAYLOR ST & TENTH ST .]]></name>
        <description>66</description>
        <styleUrl>#icon-1899-DB4436</styleUrl>
        <Point>
          <coordinates>
            -121.890661,37.353617,0
          </coordinates>
        </Point>
      </Placemark>
      <Placemark>
        <name><![CDATA[ELEVENTH ST & TAYLOR ST.]]></name>
        <description>208</description>
        <styleUrl>#icon-1899-DB4436</styleUrl>
        <Point>
          <coordinates>
            -121.889612,37.354114,0
          </coordinates>
        </Point>
      </Placemark>
      <Placemark>
        <name><![CDATA[TAYLOR ST. & THIRTEENTH ST]]></name>
        <description>39</description>
        <styleUrl>#icon-1899-DB4436</styleUrl>
        <Point>
          <coordinates>
            -121.887746,37.355005,0
          </coordinates>
        </Point>
      </Placemark>
      <Placemark>
        <name><![CDATA[SEVENTEENTH ST & TAYLOR ST]]></name>
        <description>642</description>
        <styleUrl>#icon-1899-DB4436</styleUrl>
        <Point>
          <coordinates>
            -121.884013,37.356774,0
          </coordinates>
        </Point>
      </Placemark>
      <Placemark>
        <name><![CDATA[TAYLOR ST & TWENTY FIRST ST]]></name>
        <description>834</description>
        <styleUrl>#icon-1899-DB4436</styleUrl>
        <Point>
          <coordinates>
            -121.880272,37.358551,0
          </coordinates>
        </Point>
      </Placemark>
      <Placemark>
        <name><![CDATA[AIRPORT PW & MATRIX BL]]></name>
        <description>148</description>
        <styleUrl>#icon-1899-DB4436</styleUrl>
        <Point>
          <coordinates>
            -121.919824,37.371784,0
          </coordinates>
        </Point>
      </Placemark>
      <Placemark>
        <name><![CDATA[BROKAW RD & FIRST ST]]></name>
        <description>333</description>
        <styleUrl>#icon-1899-DB4436</styleUrl>
        <Point>
          <coordinates>
            -121.91822,37.373252,0
          </coordinates>
        </Point>
      </Placemark>
      <Placemark>
        <name><![CDATA[BAYSHORE FR & BROKAW RD E]]></name>
        <description>518</description>
        <styleUrl>#icon-1899-DB4436</styleUrl>
        <Point>
          <coordinates>
            -121.917048,37.374301,0
          </coordinates>
        </Point>
      </Placemark>
      <Placemark>
        <name><![CDATA[BERING DR & BROKAW RD]]></name>
        <description>474</description>
        <styleUrl>#icon-1899-DB4436</styleUrl>
        <Point>
          <coordinates>
            -121.915604,37.375589,0
          </coordinates>
        </Point>
      </Placemark>
      <Placemark>
        <name><![CDATA[BROKAW RD. & ZANKER RD.]]></name>
        <description>357</description>
        <styleUrl>#icon-1899-DB4436</styleUrl>
        <Point>
          <coordinates>
            -121.913135,37.377356,0
          </coordinates>
        </Point>
      </Placemark>
      <Placemark>
        <name><![CDATA[FLICKINGER AV & HOSTETTER RD]]></name>
        <description>374</description>
        <styleUrl>#icon-1899-DB4436</styleUrl>
        <Point>
          <coordinates>
            -121.879161,37.390981,0
          </coordinates>
        </Point>
      </Placemark>
      <Placemark>
        <name><![CDATA[FOUR OAKS RD & HOSTETTER RD]]></name>
        <description>506</description>
        <styleUrl>#icon-1899-DB4436</styleUrl>
        <Point>
          <coordinates>
            -121.876136,37.393644,0
          </coordinates>
        </Point>
      </Placemark>
      <Placemark>
        <name><![CDATA[CAPITOL AV & HOSTETTER RD]]></name>
        <description>181</description>
        <styleUrl>#icon-1899-DB4436</styleUrl>
        <Point>
          <coordinates>
            -121.871725,37.396704,0
          </coordinates>
        </Point>
      </Placemark>
    </Folder>
  </Document>
</kml>
